# 
# Header Description:
# 
# Version: v3.10.5 (24099-google), Manufacturer: Xiaomi, Model: M2012K11AG, GNSS HW Year: 2020, Platform: 12, API Level: 32 
# 
# Raw GNSS measurements format:
#   Raw,utcTimeMillis,TimeNanos,LeapSecond,TimeUncertaintyNanos,FullBiasNanos,BiasNanos,BiasUncertaintyNanos,DriftNanosPerSecond,DriftUncertaintyNanosPerSecond,HardwareClockDiscontinuityCount,Svid,TimeOffsetNanos,State,ReceivedSvTimeNanos,ReceivedSvTimeUncertaintyNanos,Cn0DbHz,PseudorangeRateMetersPerSecond,PseudorangeRateUncertaintyMetersPerSecond,AccumulatedDeltaRangeState,AccumulatedDeltaRangeMeters,AccumulatedDeltaRangeUncertaintyMeters,CarrierFrequencyHz,CarrierCycles,CarrierPhase,CarrierPhaseUncertainty,MultipathIndicator,SnrInDb,ConstellationType,AgcDb,BasebandCn0DbHz,FullInterSignalBiasNanos,FullInterSignalBiasUncertaintyNanos,SatelliteInterSignalBiasNanos,SatelliteInterSignalBiasUncertaintyNanos,CodeType,ChipsetElapsedRealtimeNanos
# 
# Location fix format: (This is the one we want**************)
#   Fix,Provider,LatitudeDegrees,LongitudeDegrees,AltitudeMeters,SpeedMps,AccuracyMeters,BearingDegrees,UnixTimeMillis,SpeedAccuracyMps,BearingAccuracyDegrees,elapsedRealtimeNanos,VerticalAccuracyMeters,MockLocation
# 
# Navigation message format:
#   Nav,Svid,Type,Status,MessageId,Sub-messageId,Data(Bytes)
# 
# NMEA format (for [NMEA sentence] format see https://en.wikipedia.org/wiki/NMEA_0183):
#   NMEA,[NMEA sentence],(UTC)TimeInMs
# 
# GnssAntennaInfo format (https://developer.android.com/reference/android/location/GnssAntennaInfo):
#   GnssAntennaInfo,CarrierFrequencyMHz,PhaseCenterOffsetXOffsetMm,PhaseCenterOffsetXOffsetUncertaintyMm,PhaseCenterOffsetYOffsetMm,PhaseCenterOffsetYOffsetUncertaintyMm,PhaseCenterOffsetZOffsetMm,PhaseCenterOffsetZOffsetUncertaintyMm,PhaseCenterVariationCorrectionsArray,PhaseCenterVariationCorrectionUncertaintiesArray,PhaseCenterVariationCorrectionsDeltaPhi,PhaseCenterVariationCorrectionsDeltaTheta,SignalGainCorrectionsArray,SignalGainCorrectionUncertaintiesArray,SignalGainCorrectionsDeltaPhi,SignalGainCorrectionsDeltaTheta
# 
# GnssStatus format (https://developer.android.com/reference/android/location/GnssStatus):
#   Status,UnixTimeMillis,SignalCount,SignalIndex,ConstellationType,Svid,CarrierFrequencyHz,Cn0DbHz,AzimuthDegrees,ElevationDegrees,UsedInFix,HasAlmanacData,HasEphemerisData,BasebandCn0DbHz
# Orientation sensor format (https://developer.android.com/reference/android/hardware/SensorEvent#values):
#   OrientationDeg,utcTimeMillis,elapsedRealtimeNanos,yawDeg,rollDeg,pitchDeg
Fix,gps,52.17132169,0.1711431,86.537353515625,1.05,35.74975,324.2,1741096809398,1.2041595,43.867138,327904097670807,20.321562,0
Fix,gps,52.17147619,0.17118293,123.3492431640625,0.77,22.203268,47.7,1741096811549,1.2101653,70.35904,327905764621015,27.757198,0
Fix,gps,52.17140834,0.17115293,107.44775390625,0.0,11.890952,0.0,1741096812549,0.664003,,327906765885285,14.042315,0
Fix,gps,52.17139595,0.17114804,104.0126953125,0.0,10.982454,0.0,1741096813549,0.5860034,,327907757030702,12.927956,0
Fix,gps,52.17127964,0.17101644,85.90826416015625,0.23,6.196936,47.7,1741096814000,0.55865914,39.346054,327908766797055,7.7316313,0
Fix,gps,52.1712931,0.17103384,89.2364501953125,0.0,4.188208,0.0,1741096816000,0.086023256,,327910218219138,5.062802,0
Fix,gps,52.17129445,0.17104217,90.0113525390625,0.0,3.9658856,0.0,1741096817000,0.086023256,,327911218644190,4.515109,0
Fix,gps,52.17129823,0.17104327,91.29144287109375,0.0,3.853102,0.0,1741096818000,0.086023256,,327912224371273,4.22633,0
Fix,gps,52.17129937,0.17104562,91.8563232421875,0.0,3.7900925,0.0,1741096819000,0.086023256,,327913207647783,3.8842974,0
Fix,gps,52.17130631,0.17105191,92.641845703125,0.0,3.7900925,0.0,1741096820000,0.086023256,,327914213960647,3.9299078,0
Fix,gps,52.1713182,0.17104107,92.7113037109375,0.32,3.7900925,324.3,1741096821000,1.1661904,86.99358,327915198957313,3.4694557,0
Fix,gps,52.17132479,0.17104214,93.1910400390625,0.0,3.7900925,0.0,1741096822000,0.086023256,,327916212353771,3.7025836,0
Fix,gps,52.17132584,0.17103841,92.36163330078125,0.0,3.7900925,0.0,1741096823000,0.09433981,,327917238045073,3.5073094,0
Fix,gps,52.17133058,0.17103693,92.7880859375,0.0,3.7900925,0.0,1741096824000,0.086023256,,327918208503354,3.4038773,0
Fix,gps,52.17132963,0.17103383,92.4410400390625,0.0,3.7900925,0.0,1741096825000,0.080622576,,327919228366062,3.2524815,0
Fix,gps,52.17133123,0.17103516,92.2109375,0.0,3.7900925,0.0,1741096826000,0.080622576,,327920219863145,3.2699807,0
Fix,gps,52.17133071,0.17103327,91.47271728515625,0.0,3.7900925,0.0,1741096827000,0.080622576,,327921206294499,3.074467,0
Fix,gps,52.17133171,0.17103393,90.9134521484375,0.0,3.7900925,0.0,1741096828000,0.080622576,,327922216196529,2.9541707,0
Fix,gps,52.1713326,0.17103302,90.2490234375,0.0,3.7900925,0.0,1741096829000,0.080622576,,327923212254915,2.868463,0
Fix,gps,52.17133486,0.17103477,90.013671875,0.0,3.7900925,0.0,1741096830000,0.080622576,,327924204135591,2.6667938,0
Fix,gps,52.1713335,0.17103351,89.80389404296875,0.0,3.7900925,0.0,1741096831000,1.2022063,,327925205064705,2.6051216,0
Fix,gps,52.17133143,0.17103188,89.46405029296875,0.0,3.7900925,0.0,1741096832000,0.17691806,,327926214734393,2.6524994,0
Fix,gps,52.17133316,0.17103038,89.328369140625,0.0,3.7900925,0.0,1741096833000,0.1640122,,327927209469705,2.5180175,0
Fix,gps,52.17133282,0.17103828,89.8509521484375,0.0,3.7900925,0.0,1741096834000,0.086023256,,327928218548142,2.5,0
Fix,gps,52.17133374,0.1710363,89.87408447265625,0.0,3.7900925,0.0,1741096835000,0.27658632,,327929205404027,2.5,0
Fix,gps,52.17133218,0.17103709,89.66363525390625,0.0,3.7900925,0.0,1741096836000,0.086023256,,327930216210172,2.5,0
Fix,gps,52.17133442,0.17104073,89.46832275390625,0.0,3.7900925,0.0,1741096837000,0.086023256,,327931202925016,2.5,0
Fix,gps,52.17133516,0.17104432,89.36175537109375,0.0,3.7900925,0.0,1741096838000,0.086023256,,327932212026526,2.5,0
Fix,gps,52.17133518,0.1710494,89.0106201171875,0.16,3.7900925,55.3,1741096839000,1.1200446,95.584885,327933213083452,2.5,0
Fix,gps,52.171337,0.1710474,88.3331298828125,0.0,3.7900925,0.0,1741096840000,0.086023256,,327934208121681,2.5,0
Fix,gps,52.17133599,0.17105061,88.05279541015625,0.0,3.7900925,0.0,1741096841000,0.086023256,,327935216520066,2.5,0
Fix,gps,52.17133573,0.17105713,88.476318359375,0.0,3.7900925,0.0,1741096842000,0.086023256,,327936210200066,2.5,0
Fix,gps,52.17133573,0.17105634,88.33087158203125,0.0,3.7900925,0.0,1741096843000,0.086023256,,327937205597097,2.5,0
Fix,gps,52.1713372,0.17105484,88.1534423828125,0.0,3.7900925,0.0,1741096844000,0.086023256,,327938213610169,2.5,0
Fix,gps,52.17133831,0.17105466,87.832763671875,0.0,3.7900925,0.0,1741096845000,0.086023256,,327939203071783,2.5,0
Fix,gps,52.17133787,0.17105289,87.66015625,0.0,3.7900925,0.0,1741096846000,0.086023256,,327940209742512,2.5,0
Fix,gps,52.1713376,0.17105282,87.51025390625,0.0,3.7900925,0.0,1741096847000,0.086023256,,327941212358189,2.5,0
Fix,gps,52.17133854,0.17104996,87.32965087890625,0.0,3.7900925,0.0,1741096848000,0.086023256,,327942214522772,2.5,0
Fix,gps,52.17133934,0.17104834,87.05291748046875,0.0,3.7900925,0.0,1741096849000,0.086023256,,327943206310740,2.5,0
Fix,gps,52.17133926,0.17104787,86.95416259765625,0.0,3.7900925,0.0,1741096850000,0.086023256,,327944226419334,2.5,0
Fix,gps,52.1713393,0.17104774,86.91864013671875,0.0,3.7900925,0.0,1741096851000,0.086023256,,327945217972094,2.5,0
Fix,gps,52.17133933,0.17104766,86.89678955078125,0.0,3.7900925,0.0,1741096852000,0.086023256,,327946212751260,2.5,0
Fix,gps,52.1713393,0.17104767,86.89013671875,0.0,3.7900925,0.0,1741096853000,0.086023256,,327947205283291,2.5,0
Fix,gps,52.17133931,0.17104767,86.886474609375,0.0,3.7900925,0.0,1741096854000,0.086023256,,327948215266363,2.5,0
Fix,gps,52.17133932,0.17104766,86.8824462890625,0.0,3.7900925,0.0,1741096855000,0.086023256,,327949206633863,2.5,0
Fix,gps,52.17133916,0.17104846,86.92388916015625,0.0,3.7900925,0.0,1741096856000,0.086023256,,327950211281831,2.5,0
Fix,gps,52.17133915,0.17104837,86.906494140625,0.0,3.7900925,0.0,1741096857000,0.086023256,,327951217012039,2.5,0
Fix,gps,52.17133896,0.17104875,86.87322998046875,0.0,3.7900925,0.0,1741096858000,0.086023256,,327952204760476,2.5,0
Fix,gps,52.17133893,0.17104883,86.87799072265625,0.0,3.7900925,0.0,1741096859000,0.086023256,,327953207790320,2.5,0
Fix,gps,52.17133893,0.17104884,86.8780517578125,0.0,3.7900925,0.0,1741096860000,0.086023256,,327954219115059,2.5,0
Fix,gps,52.17133886,0.17104985,86.89215087890625,0.0,3.7900925,0.0,1741096861000,0.086023256,,327955221793913,2.5,0
Fix,gps,52.17133885,0.17104985,86.89263916015625,0.0,3.7900925,0.0,1741096862000,0.086023256,,327956213109589,2.5,0
Fix,gps,52.17133881,0.17104996,86.89324951171875,0.0,3.7900925,0.0,1741096863000,0.086023256,,327957211284537,2.5,0
Fix,gps,52.17133887,0.17104992,86.9072265625,0.0,3.7900925,0.0,1741096864000,0.086023256,,327958204986255,2.5,0
Fix,gps,52.17133884,0.17104999,86.9053955078125,0.0,3.7900925,0.0,1741096865000,0.086023256,,327959212572609,2.5,0
Fix,gps,52.17133884,0.17105,86.9039306640625,0.0,3.7900925,0.0,1741096866000,0.086023256,,327960212551411,2.5,0
Fix,gps,52.17133329,0.1710547,87.5694580078125,0.0,3.7900925,0.0,1741096867000,0.8544004,,327961198289952,2.5,0
Fix,gps,52.1713328,0.17104905,87.03533935546875,0.0,3.7900925,0.0,1741096868000,0.086023256,,327962199958285,2.5,0
Fix,gps,52.17133383,0.17104581,87.37396240234375,0.0,3.7900925,0.0,1741096869000,0.086023256,,327963211237035,2.5,0
Fix,gps,52.17133153,0.17104433,87.351318359375,0.0,3.7900925,0.0,1741096870000,0.086023256,,327964207156045,2.5,0
Fix,gps,52.17133418,0.17104143,87.72723388671875,0.32,3.7900925,325.9,1741096871000,0.9013878,80.55788,327965196918805,2.5,0
Fix,gps,52.17133188,0.17104017,87.671142578125,0.0,3.7900925,0.0,1741096872000,0.086023256,,327966214164742,2.5,0
Fix,gps,52.17132678,0.17104408,87.82733154296875,0.0,3.7900925,0.0,1741096873000,0.086023256,,327967216338752,2.5,0
Fix,gps,52.17132569,0.17104679,87.79229736328125,0.0,3.7900925,0.0,1741096874000,0.086023256,,327968212075314,2.5,0
Fix,gps,52.17132175,0.17104353,87.3095703125,0.26,3.7900925,177.6,1741096875000,0.8575547,84.91791,327969206343803,2.5,0
Fix,gps,52.17132042,0.17104062,86.931640625,0.0,3.7900925,0.0,1741096876000,0.086023256,,327970211978907,2.5,0
Fix,gps,52.1713198,0.17103657,86.84002685546875,0.0,3.7900925,0.0,1741096877000,0.086023256,,327971207827500,2.5,0
Fix,gps,52.17131869,0.17103403,86.441162109375,0.0,3.7900925,0.0,1741096878000,0.086023256,,327972214695052,2.5,0
Fix,gps,52.17131726,0.17103228,85.968505859375,0.0,3.7900925,0.0,1741096879000,0.086023256,,327973216992552,2.5,0
Fix,gps,52.17131478,0.17103213,85.303466796875,0.0,3.7900925,0.0,1741096880000,0.086023256,,327974212861926,2.5,0
Fix,gps,52.17131246,0.17103001,84.93707275390625,0.0,3.7900925,0.0,1741096881000,0.086023256,,327975221679270,2.5,0
Fix,gps,52.17131108,0.17102758,84.47344970703125,0.0,3.7900925,0.0,1741096882000,0.086023256,,327976217992446,2.5,0
Fix,gps,52.17130962,0.17102501,84.4251708984375,0.0,3.7900925,0.0,1741096883000,0.086023256,,327977216554477,2.5,0
Fix,gps,52.1713086,0.17102222,84.23883056640625,0.0,3.7900925,0.0,1741096884000,0.086023256,,327978210886404,2.5,0
Fix,gps,52.17130773,0.17101815,83.9468994140625,0.0,3.7900925,0.0,1741096885000,0.086023256,,327979211927549,2.5,0
Fix,gps,52.17130721,0.17101697,83.8643798828125,0.0,3.7900925,0.0,1741096886000,0.086023256,,327980208609528,2.5,0
Fix,gps,52.17130707,0.17101633,83.8751220703125,0.0,3.7900925,0.0,1741096887000,0.086023256,,327981209759319,2.5,0
Fix,gps,52.17130698,0.17101608,83.86688232421875,0.0,3.7900925,0.0,1741096888000,0.086023256,,327982202726194,2.5,0
Fix,gps,52.17130696,0.17101597,83.865478515625,0.0,3.7900925,0.0,1741096889000,0.086023256,,327983201492131,2.5,0
Fix,gps,52.17130695,0.17101591,83.861328125,0.0,3.7900925,0.0,1741096890000,0.086023256,,327984216112391,2.5,0
Fix,gps,52.17130695,0.17101589,83.85986328125,0.0,3.7900925,0.0,1741096891000,0.086023256,,327985211475099,2.5,0
Fix,gps,52.17130694,0.17101588,83.86053466796875,0.0,3.7900925,0.0,1741096892000,0.086023256,,327986208176609,2.5,0
Fix,gps,52.17130692,0.17101589,83.8577880859375,0.0,3.7900925,0.0,1741096893000,0.086023256,,327987212558848,2.5,0
Fix,gps,52.17130689,0.17101589,83.8568115234375,0.0,3.7900925,0.0,1741096894000,0.086023256,,327988209479473,2.5,0
Fix,gps,52.17130688,0.1710159,83.85662841796875,0.0,3.7900925,0.0,1741096895000,0.086023256,,327989212440150,2.5,0
Fix,gps,52.1713071,0.17101592,83.869873046875,0.0,3.7900925,0.0,1741096896000,0.086023256,,327990220649785,2.5,0
Fix,gps,52.17130713,0.17101591,83.86627197265625,0.0,3.7900925,0.0,1741096897000,0.086023256,,327991218608326,2.5,0
Fix,gps,52.17130713,0.17101592,83.8643798828125,0.0,3.7900925,0.0,1741096898000,0.086023256,,327992205463430,2.5,0
Fix,gps,52.17130711,0.17101595,83.86407470703125,0.0,3.7900925,0.0,1741096899000,0.0781025,,327993213503169,2.5,0
Fix,gps,52.17130711,0.17101593,83.86572265625,0.0,3.7900925,0.0,1741096900000,0.086023256,,327994203705200,2.5,0
Fix,gps,52.17130704,0.17101606,83.85382080078125,0.0,3.7900925,0.0,1741096901000,0.086023256,,327995205355981,2.5,0
Fix,gps,52.17130701,0.17101607,83.85302734375,0.0,3.7900925,0.0,1741096902000,0.086023256,,327996212523741,2.5,0
Fix,gps,52.17130699,0.17101607,83.8529052734375,0.0,3.7900925,0.0,1741096903000,0.086023256,,327997207678168,2.5,0
Fix,gps,52.17130698,0.17101609,83.858154296875,0.0,3.7900925,0.0,1741096904000,0.086023256,,327998213905303,2.5,0
Fix,gps,52.17130693,0.17101617,83.8597412109375,0.0,3.7900925,0.0,1741096905000,0.086023256,,327999220971292,2.5,0
Fix,gps,52.17130689,0.17101626,83.8648681640625,0.0,3.7900925,0.0,1741096906000,0.086023256,,328000215689677,2.5,0
Fix,gps,52.17130686,0.17101636,83.8707275390625,0.0,3.7900925,0.0,1741096907000,0.086023256,,328001210815406,2.5,0
Fix,gps,52.17130682,0.17101643,83.87396240234375,0.0,3.7900925,0.0,1741096908000,0.086023256,,328002208228426,2.5,0
Fix,gps,52.1713068,0.17101649,83.8812255859375,0.0,3.7900925,0.0,1741096909000,0.086023256,,328003202039624,2.5,0
Fix,gps,52.17130679,0.17101653,83.8848876953125,0.0,3.7900925,0.0,1741096910000,0.086023256,,328004210547957,2.5,0
Fix,gps,52.17130677,0.17101661,83.8875732421875,0.0,3.7900925,0.0,1741096911000,0.086023256,,328005246050664,2.5,0
Fix,gps,52.17130674,0.17101669,83.89300537109375,0.0,3.7900925,0.0,1741096912000,0.086023256,,328006204948372,2.5,0
Fix,gps,52.17130671,0.17101677,83.897705078125,0.0,3.7900925,0.0,1741096913000,0.086023256,,328007211697643,2.5,0
Fix,gps,52.17130667,0.17101685,83.89990234375,0.0,3.7900925,0.0,1741096914000,0.086023256,,328008207088476,2.5,0
Fix,gps,52.17130659,0.17101664,83.86102294921875,0.0,3.7900925,0.0,1741096915000,0.086023256,,328009204425871,2.5,0
Fix,gps,52.17130662,0.17101685,83.909912109375,0.0,3.7900925,0.0,1741096916000,0.086023256,,328010206695871,2.5,0
Fix,gps,52.17131031,0.17101489,84.345458984375,0.37,3.7900925,343.2,1741096917000,0.9596354,79.02322,328011217269777,2.5,0
Fix,gps,52.17131185,0.17101499,84.52667236328125,0.0,3.7900925,0.0,1741096918000,0.10630146,,328012213254203,2.5,0
Fix,gps,52.17130787,0.17102307,83.96087646484375,0.0,3.7900925,0.0,1741096919000,0.080622576,,328013201344411,2.5,0
Fix,gps,52.17130443,0.17103013,83.4869384765625,0.0,3.7900925,0.0,1741096920000,0.086023256,,328014217204099,2.5,0
Fix,gps,52.17130083,0.17103738,83.14337158203125,0.0,3.7900925,0.0,1741096921000,0.086023256,,328015209667432,2.5,0
Fix,gps,52.17129793,0.1710425,82.8046875,0.0,3.7900925,0.0,1741096922000,0.086023256,,328016216784306,2.5,0
Fix,gps,52.17129614,0.17104512,82.65576171875,0.0,3.7900925,0.0,1741096923000,0.086023256,,328017217689514,2.5,0
Fix,gps,52.1712938,0.17104748,82.5101318359375,0.0,3.7900925,0.0,1741096924000,0.086023256,,328018213827535,2.5,0
Fix,gps,52.17129525,0.1710435,82.859130859375,0.23,3.7900925,320.2,1741096925000,0.8682166,87.208466,328019206714357,2.5,0
Fix,gps,52.17129398,0.17104692,83.33782958984375,0.0,3.7900925,0.0,1741096926000,0.086023256,,328020214836596,2.5,0
Fix,gps,52.17129361,0.17104796,83.458251953125,0.0,3.7900925,0.0,1741096927000,0.086023256,,328021208153888,2.5,0
Fix,gps,52.17129389,0.17104883,83.8248291015625,0.0,3.7900925,0.0,1741096928000,0.086023256,,328022208334512,2.5,0
Fix,gps,52.17129417,0.17104953,84.00128173828125,0.0,3.7900925,0.0,1741096929000,0.086023256,,328023212683106,2.5,0
Fix,gps,52.17129447,0.17105024,84.332763671875,0.0,3.7900925,0.0,1741096930000,0.086023256,,328024213942220,2.5,0
Fix,gps,52.17129429,0.17104993,84.60443115234375,0.0,3.7900925,0.0,1741096931000,0.086023256,,328025205157271,2.5,0
Fix,gps,52.17129449,0.17105066,84.86199951171875,0.0,3.7900925,0.0,1741096932000,0.086023256,,328026215774302,2.5,0
Fix,gps,52.17129478,0.17105248,85.10333251953125,0.0,3.7900925,0.0,1741096933000,0.086023256,,328027208134719,2.5,0
Fix,gps,52.17129539,0.17105302,85.19970703125,0.0,3.7900925,0.0,1741096934000,0.086023256,,328028213831385,2.5,0
Fix,gps,52.17129561,0.1710545,85.3861083984375,0.0,3.7900925,0.0,1741096935000,0.086023256,,328029224825187,2.5,0
Fix,gps,52.17129564,0.17105508,85.425537109375,0.0,3.7900925,0.0,1741096936000,0.086023256,,328030210314822,2.5,0
Fix,gps,52.17129563,0.17105511,85.5184326171875,0.0,3.7900925,0.0,1741096937000,0.086023256,,328031215858259,2.5,0
Fix,gps,52.17129555,0.17105539,85.5931396484375,0.0,3.7900925,0.0,1741096938000,0.086023256,,328032209262633,2.5,0
Fix,gps,52.17129567,0.17105527,85.629638671875,0.0,3.7900925,0.0,1741096939000,0.086023256,,328033220713987,2.5,0
Fix,gps,52.17129032,0.17105904,85.7923583984375,0.76,3.7900925,149.7,1741096940000,0.89888823,53.484306,328034219416383,2.5,0
Fix,gps,52.17128909,0.17105751,85.9222412109375,0.0,3.7900925,0.0,1741096941000,0.092195444,,328035222436695,2.5,0
Fix,gps,52.17128964,0.17105919,85.98931884765625,0.0,3.7900925,0.0,1741096942000,0.086023256,,328036212329246,2.5,0
Fix,gps,52.17128943,0.17106009,85.9954833984375,0.0,3.7900925,0.0,1741096943000,0.086023256,,328037203333777,2.5,0
Fix,gps,52.17128937,0.17106146,86.0682373046875,0.0,3.7900925,0.0,1741096944000,0.086023256,,328038218310860,2.5,0
Fix,gps,52.17128904,0.17106268,86.0855712890625,0.0,3.7900925,0.0,1741096945000,0.086023256,,328039207460756,2.5,0
Fix,gps,52.17128863,0.17106332,86.0299072265625,0.0,3.7900925,0.0,1741096946000,0.086023256,,328040207019922,2.5,0
Fix,gps,52.17128817,0.17106308,85.893310546875,0.0,3.7900925,0.0,1741096947000,0.1,,328041218477057,2.5,0
Fix,gps,52.17128779,0.17106344,85.88360595703125,0.0,3.7900925,0.0,1741096948000,0.086023256,,328042210968619,2.5,0
Fix,gps,52.17128763,0.17106376,85.91082763671875,0.0,3.7900925,0.0,1741096949000,0.09433981,,328043197155598,2.5,0
Fix,gps,52.1712876,0.17106452,85.977294921875,0.0,3.7900925,0.0,1741096950000,0.086023256,,328044214688827,2.5,0
Fix,gps,52.1712868,0.17106314,85.8756103515625,0.0,3.7900925,0.0,1741096951000,0.086023256,,328045210328774,2.5,0
Fix,gps,52.17128667,0.17106287,85.88262939453125,0.0,3.7900925,0.0,1741096952000,0.086023256,,328046219241534,2.5,0
Fix,gps,52.17128663,0.17106279,85.882568359375,0.0,3.7900925,0.0,1741096953000,0.086023256,,328047217820284,2.5,0
Fix,gps,52.17128661,0.17106277,85.8828125,0.0,3.7900925,0.0,1741096954000,0.086023256,,328048211068721,2.5,0
Fix,gps,52.17128659,0.17106276,85.882568359375,0.0,3.7900925,0.0,1741096955000,0.086023256,,328049215706898,2.5,0
Fix,gps,52.17128659,0.17106275,85.8824462890625,0.0,3.9613345,0.0,1741096956000,0.086023256,,328050207188929,2.5,0
Fix,gps,52.17128659,0.17106275,85.8824462890625,0.0,3.9163013,0.0,1741096957000,0.086023256,,328051218863668,2.5,0
Fix,gps,52.17128657,0.17106274,85.88037109375,0.0,4.0210676,0.0,1741096958000,0.086023256,,328052210035542,2.5,0
Fix,gps,52.17128657,0.17106274,85.880126953125,0.0,4.0355525,0.0,1741096959000,0.086023256,,328053221848563,2.5,0
Fix,gps,52.17128656,0.17106273,85.8792724609375,0.0,4.024524,0.0,1741096960000,0.086023256,,328054218191844,2.5,0
Fix,gps,52.17128655,0.17106273,85.87921142578125,0.0,3.9566503,0.0,1741096961000,0.086023256,,328055211514708,2.5,0
Fix,gps,52.17128654,0.17106272,85.8787841796875,0.0,3.9011152,0.0,1741096962000,0.086023256,,328056219643093,2.5,0
Fix,gps,52.17128654,0.17106272,85.8780517578125,0.0,3.9384005,0.0,1741096963000,0.086023256,,328057209902520,2.5,0
Fix,gps,52.17128653,0.17106271,85.8773193359375,0.0,3.974185,0.0,1741096964000,0.086023256,,328058211354811,2.5,0
Fix,gps,52.17128653,0.17106271,85.87994384765625,0.0,3.8932114,0.0,1741096965000,0.086023256,,328059214529238,2.5,0
Fix,gps,52.17128653,0.17106271,85.879638671875,0.0,4.1447544,0.0,1741096966000,0.086023256,,328060208591164,2.5,0
Fix,gps,52.17128654,0.17106271,85.88250732421875,0.0,4.5409393,0.0,1741096967000,0.086023256,,328061217710747,2.618494,0
Fix,gps,52.17128654,0.1710627,85.88250732421875,0.0,4.8533463,0.0,1741096968000,0.086023256,,328062225052466,2.8816688,0
Fix,gps,52.17128653,0.1710627,85.88287353515625,0.0,4.9460673,0.0,1741096969000,0.086023256,,328063213750590,2.952499,0
Fix,gps,52.17128653,0.17106269,85.88397216796875,0.0,5.035925,0.0,1741096970000,0.086023256,,328064215441736,3.0206623,0
Fix,gps,52.17128653,0.17106269,85.8836669921875,0.0,5.2776012,0.0,1741096971000,0.086023256,,328065217897100,3.2138019,0
Fix,gps,52.17128652,0.17106268,85.88330078125,0.0,5.232075,0.0,1741096972000,0.086023256,,328066213262725,3.1697516,0
Fix,gps,52.17128652,0.17106268,85.88458251953125,0.0,5.2471724,0.0,1741096973000,0.086023256,,328067210977724,3.1763153,0
Fix,gps,52.17128652,0.17106267,85.88641357421875,0.0,5.2326837,0.0,1741096974000,0.086023256,,328068213713036,3.1589696,0
Fix,gps,52.17128608,0.17106436,85.9951171875,0.0,5.0388923,0.0,1741096975000,0.086023256,,328069211507203,3.0067508,0
Fix,gps,52.17128594,0.17106487,86.0010986328125,0.0,5.15928,0.0,1741096976000,0.086023256,,328070208397046,3.1063445,0
Fix,gps,52.17128588,0.17106507,86.0050048828125,0.0,5.3205256,0.0,1741096977000,0.086023256,,328071216363296,3.2361753,0
Fix,gps,52.17128583,0.17106517,86.0052490234375,0.0,5.5847754,0.0,1741096978000,0.086023256,,328072218154754,3.4463181,0
Fix,gps,52.17128581,0.17106522,86.00738525390625,0.0,5.7360654,0.0,1741096979000,0.086023256,,328073224141368,3.5633016,0
Fix,gps,52.17128578,0.17106525,86.00762939453125,0.0,5.8231916,0.0,1741096980000,0.086023256,,328074213588086,3.6283484,0
Fix,gps,52.17128554,0.1710641,85.9091796875,0.0,5.8939385,0.0,1741096981000,0.086023256,,328075207493554,3.7052402,0
Fix,gps,52.17128543,0.17106376,85.9027099609375,0.0,6.1056004,0.0,1741096982000,0.086023256,,328076218988971,3.8773854,0
Fix,gps,52.17128536,0.17106364,85.89794921875,0.0,6.215972,0.0,1741096983000,0.086023256,,328077219327095,3.9660017,0
Fix,gps,52.1712853,0.17106357,85.89324951171875,0.0,6.5199704,0.0,1741096984000,0.086023256,,328078221165949,4.2044516,0
Fix,gps,52.17128526,0.17106351,85.888916015625,0.0,6.868859,0.0,1741096985000,0.086023256,,328079223311730,4.475584,0
Fix,gps,52.17128523,0.17106346,85.8861083984375,0.0,7.7877107,0.0,1741096986000,0.086023256,,328080212752875,5.1767807,0
Fix,gps,52.17128519,0.17106342,85.8814697265625,0.0,12.412838,0.0,1741096987000,0.086023256,,328081208858708,5.4471264,0
Fix,gps,52.17128492,0.1710632,85.87860107421875,0.0,12.6123905,0.0,1741096988000,0.086023256,,328082215889750,5.839029,0
Fix,gps,52.17128487,0.17106314,85.8802490234375,0.0,12.571909,0.0,1741096989000,0.086023256,,328083211324801,5.7708583,0
Fix,gps,52.17128485,0.17106313,85.87982177734375,0.0,12.056275,0.0,1741096990000,0.086023256,,328084212563082,4.903004,0
Fix,gps,52.17128484,0.17106312,85.8792724609375,0.0,11.9411,0.0,1741096991000,0.09433981,,328085209852717,4.6259627,0
Fix,gps,52.17128483,0.17106313,85.8792724609375,0.0,11.710957,0.0,1741096992000,0.092195444,,328086203493082,3.7550979,0
Fix,gps,52.17128483,0.17106313,85.8785400390625,0.0,11.560782,0.0,1741096993000,0.13038404,,328087206049071,3.0776029,0
Fix,gps,52.17128483,0.17106314,85.87640380859375,0.0,11.195155,0.0,1741096994000,0.14764823,,328088218192456,2.6140966,0
Fix,gps,52.17128484,0.17106313,85.87548828125,0.0,11.01714,0.0,1741096995000,0.15652476,,328089211845580,2.5,0
Fix,gps,52.17128484,0.17106313,85.87408447265625,0.0,10.988741,0.0,1741096996000,0.16552946,,328090207081049,2.5,0
Fix,gps,52.17128484,0.17106311,85.8736572265625,0.0,10.899702,0.0,1741096997000,0.09433981,,328091213360423,2.5,0
Fix,gps,52.17128483,0.17106311,85.87237548828125,0.0,11.005304,0.0,1741096998000,0.13892443,,328092218901933,2.5,0
Fix,gps,52.17128484,0.1710631,85.868896484375,0.0,11.292524,0.0,1741096999000,0.09433981,,328093218393391,2.5,0
Fix,gps,52.17128485,0.17106309,85.868896484375,0.0,11.372055,0.0,1741097000000,0.09433981,,328094214973078,2.5451891,0
Fix,gps,52.17128485,0.17106309,85.86749267578125,0.0,11.360465,0.0,1741097001000,0.09433981,,328095333292713,2.511479,0
Fix,gps,52.17128484,0.17106309,85.8634033203125,0.0,11.947989,0.0,1741097003000,0.09433981,,328097209510681,3.3356044,0
Fix,gps,52.17128484,0.17106309,85.86126708984375,0.0,12.130136,0.0,1741097004000,0.09433981,,328098207837244,3.499628,0
Fix,gps,52.17128466,0.17106429,85.95379638671875,0.0,12.011499,0.0,1741097005000,0.42544094,,328099205177868,3.1369903,0
Fix,gps,52.17128461,0.17106468,85.96331787109375,0.0,11.316718,0.0,1741097006000,0.15,,328100212871357,2.576564,0
Fix,gps,52.17128458,0.17106479,85.9727783203125,0.0,10.9006,0.0,1741097007000,0.086023256,,328101205699378,2.5,0
Fix,gps,52.17128454,0.17106484,85.9730224609375,0.0,10.919248,0.0,1741097008000,0.086023256,,328102213090419,2.5,0
Fix,gps,52.17128476,0.17106592,86.17108154296875,0.0,10.779493,0.0,1741097009000,0.086023256,,328103204690263,2.5,0
Fix,gps,52.17128492,0.17106685,86.289794921875,0.0,10.756094,0.0,1741097010000,0.086023256,,328104216108231,2.5,0
Fix,gps,52.17128537,0.17107038,86.6102294921875,0.0,10.711061,0.0,1741097011000,0.086023256,,328105212285626,2.5,0
Fix,gps,52.17128548,0.17107127,86.61151123046875,0.0,10.672167,0.0,1741097012000,0.086023256,,328106209773178,2.5,0
Fix,gps,52.17128548,0.17107152,86.6131591796875,0.0,10.616957,0.0,1741097013000,0.12041595,,328107217525209,2.5,0
Fix,gps,52.17128546,0.1710716,86.61346435546875,0.0,10.6710005,0.0,1741097014000,0.1,,328108216572136,2.5709336,0
Fix,gps,52.17128544,0.17107164,86.61492919921875,0.0,10.695539,0.0,1741097015000,0.13453624,,328109216068489,2.7428076,0
Fix,gps,52.17128542,0.17107167,86.61773681640625,0.0,10.675077,0.0,1741097016000,0.10630146,,328110214991927,2.8497245,0
Fix,gps,52.1712854,0.17107172,86.62451171875,0.0,10.659464,0.0,1741097017000,0.10630146,,328111215400207,2.9614139,0
Fix,gps,52.17128529,0.17107188,86.64617919921875,0.0,10.722609,0.0,1741097018000,0.086023256,,328112220506040,3.2122657,0
Fix,gps,52.17128525,0.1710719,86.644287109375,0.0,10.732138,0.0,1741097019000,0.10630146,,328113222961405,3.367194,0
Fix,gps,52.17128522,0.17107191,86.643310546875,0.0,10.708752,0.0,1741097020000,0.10630146,,328114215888487,3.449803,0
Fix,gps,52.17128521,0.17107194,86.644287109375,0.0,10.926348,0.0,1741097021000,0.1,,328115215099477,3.9889007,0
Fix,gps,52.17128519,0.17107193,86.64642333984375,0.0,11.065891,0.0,1741097022000,0.1,,328116212811143,4.004014,0
Fix,gps,52.17128517,0.17107197,86.64654541015625,0.0,11.044098,0.0,1741097023000,0.114017546,,328117213278434,3.7543464,0
Fix,gps,52.17128515,0.17107195,86.64862060546875,0.0,11.128947,0.0,1741097024000,0.114017546,,328118216998851,3.8018627,0
Fix,gps,52.17128513,0.17107197,86.6513671875,0.0,10.933062,0.0,1741097025000,0.086023256,,328119216517236,3.3570192,0
Fix,gps,52.1712851,0.17107198,86.65228271484375,0.0,10.907386,0.0,1741097026000,0.1360147,,328120205471610,3.265778,0
Fix,gps,52.17128508,0.17107198,86.65411376953125,0.0,11.037057,0.0,1741097027000,0.1,,328121220873433,3.3717327,0
Fix,gps,52.17128505,0.17107198,86.65631103515625,0.0,11.173728,0.0,1741097028000,0.10816654,,328122218803901,3.5068805,0
Fix,gps,52.17128503,0.17107198,86.6573486328125,0.0,11.368282,0.0,1741097029000,0.1835756,,328123208556401,3.653327,0
Fix,gps,52.171285,0.171072,86.66448974609375,0.0,11.405097,0.0,1741097030000,0.20124611,,328124217391400,3.5238361,0
Fix,gps,52.17128497,0.171072,86.6683349609375,0.0,11.5023985,0.0,1741097031000,0.21023796,,328125213702754,4.1498427,0
Fix,gps,52.17128495,0.171072,86.67218017578125,0.0,11.621705,0.0,1741097032000,0.21023796,,328126212444420,4.0712485,0
Fix,gps,52.17128493,0.17107201,86.6727294921875,0.0,11.4859495,0.0,1741097033000,0.15,,328127210683795,3.5338707,0
Fix,gps,52.1712849,0.17107201,86.67578125,0.0,11.483649,0.0,1741097034000,0.15,,328128216307597,3.6745903,0
Fix,gps,52.17128487,0.17107204,86.68280029296875,0.0,11.464498,0.0,1741097035000,0.156205,,328129213481711,3.6829169,0
Fix,gps,52.17128483,0.17107203,86.68817138671875,0.0,11.416448,0.0,1741097036000,0.086023256,,328130211664419,3.915635,0
Fix,gps,52.17128481,0.17107203,86.689208984375,0.0,11.326457,0.0,1741097037000,0.086023256,,328131219425825,3.631684,0
Fix,gps,52.17128479,0.17107203,86.6939697265625,0.0,11.138971,0.0,1741097038000,0.1,,328132224760304,3.4205215,0
Fix,gps,52.17128474,0.17107201,86.70001220703125,0.0,11.138334,0.0,1741097039000,0.10630146,,328133213733220,3.6492152,0
Fix,gps,52.17128469,0.171072,86.70501708984375,0.0,10.925953,0.0,1741097040000,0.10630146,,328134203007751,3.5500007,0
Fix,gps,52.1712843,0.17107107,86.63494873046875,0.0,10.883502,0.0,1741097041000,0.1,,328135212324625,3.4862657,0
Fix,gps,52.17128415,0.17107081,86.64111328125,0.0,10.81337,0.0,1741097042000,0.12727922,,328136208134208,3.6945047,0
Fix,gps,52.17128406,0.17107073,86.6429443359375,0.0,10.666841,0.0,1741097043000,0.09899495,,328137222131291,3.6496892,0
Fix,gps,52.17128399,0.17107069,86.64794921875,0.0,10.596371,0.0,1741097044000,0.09899495,,328138211381343,3.9242637,0
Fix,gps,52.17128393,0.17107062,86.65118408203125,0.0,10.627986,0.0,1741097045000,0.13453624,,328139209927436,4.4073596,0
Fix,gps,52.17128387,0.17107057,86.65325927734375,0.0,10.4647665,0.0,1741097046000,0.13453624,,328140225908686,4.301935,0
Fix,gps,52.17128382,0.17107053,86.65679931640625,0.0,10.370671,0.0,1741097047000,0.14142136,,328141222412696,4.2911406,0
Fix,gps,52.17128346,0.17107013,86.6383056640625,0.0,10.441646,0.0,1741097048000,0.10630146,,328142223970352,4.6245384,0
Fix,gps,52.17128335,0.17107003,86.64453125,0.0,10.475765,0.0,1741097049000,0.14142136,,328143218607487,4.7738667,0
Fix,gps,52.17128329,0.17107,86.6492919921875,0.0,10.494915,0.0,1741097050000,0.1,,328144213763945,4.7845325,0
Fix,gps,52.17128325,0.17106999,86.654052734375,0.0,10.51156,0.0,1741097051000,0.12806249,,328145207031392,4.7933903,0
Fix,gps,52.17128322,0.17106998,86.66082763671875,0.0,10.390514,0.0,1741097052000,0.13453624,,328146213108059,4.4010406,0
Fix,gps,52.17128318,0.17106996,86.66571044921875,0.0,10.485145,0.0,1741097053000,0.13453624,,328147201609308,4.644408,0
Fix,gps,52.17128315,0.17106994,86.6689453125,0.0,10.473238,0.0,1741097054000,0.13453624,,328148218285870,4.576373,0
Fix,gps,52.17128313,0.17106992,86.6695556640625,0.0,10.391758,0.0,1741097055000,0.24207437,,328149221443162,4.3090906,0
Fix,gps,52.17128311,0.17106992,86.67388916015625,0.0,10.284142,0.0,1741097056000,0.13453624,,328150209855922,3.9518707,0
Fix,gps,52.17128307,0.17106994,86.67498779296875,0.0,10.288284,0.0,1741097057000,0.13453624,,328151213306703,3.9988854,0
Fix,gps,52.17128304,0.17106994,86.67840576171875,0.0,10.284112,0.0,1741097058000,0.14142136,,328152226931338,3.9812725,0
Fix,gps,52.17128303,0.17106994,86.67791748046875,0.0,10.161866,0.0,1741097059000,0.24207437,,328153215121650,3.6579998,0
Fix,gps,52.171283,0.17106993,86.6798095703125,0.0,10.133971,0.0,1741097060000,0.13453624,,328154211479774,3.5606558,0
Fix,gps,52.17128299,0.17106993,86.68023681640625,0.0,9.935046,0.0,1741097061000,0.09899495,,328155215722430,3.1839755,0
Fix,gps,52.17128298,0.17106994,86.6815185546875,0.0,9.935046,0.0,1741097062000,0.09899495,,328156218086440,2.867981,0
Fix,gps,52.17128297,0.17106995,86.6812744140625,0.0,9.935046,0.0,1741097063000,0.11313708,,328157211271284,2.918749,0
Fix,gps,52.17128298,0.17106995,86.68280029296875,0.0,9.935046,0.0,1741097064000,0.156205,,328158216753679,2.843759,0
Fix,gps,52.17128296,0.17107,86.6822509765625,0.0,9.935046,0.0,1741097065000,0.1640122,,328159210898731,2.9853818,0
Fix,gps,52.17128296,0.17107,86.68145751953125,0.0,9.935046,0.0,1741097066000,0.09899495,,328160218641074,3.2145958,0
Fix,gps,52.17128296,0.17107001,86.68316650390625,0.0,9.935046,0.0,1741097067000,0.09899495,,328161213365709,3.1046717,0
Fix,gps,52.17128294,0.17107006,86.6822509765625,0.0,9.935046,0.0,1741097068000,0.15,,328162207537948,2.9782388,0
Fix,gps,52.17128293,0.17107008,86.6834716796875,0.0,9.935046,0.0,1741097069000,0.1640122,,328163210667896,3.0189295,0
Fix,gps,52.17128294,0.1710701,86.6856689453125,0.0,9.935046,0.0,1741097070000,0.1640122,,328164226088520,2.7169335,0
Fix,gps,52.17128295,0.17107012,86.688232421875,0.0,9.935046,0.0,1741097071000,0.15556349,,328165220386333,2.667919,0
Fix,gps,52.17128296,0.17107015,86.6912841796875,0.0,9.935046,0.0,1741097072000,0.14866069,,328166217871541,2.8302555,0
Fix,gps,52.17128297,0.17107015,86.69189453125,0.0,9.935046,0.0,1741097073000,0.14866069,,328167211071853,2.984305,0
Fix,gps,52.17128298,0.17107016,86.6937255859375,0.0,9.935046,0.0,1741097074000,0.14866069,,328168212644821,3.148135,0
Fix,gps,52.17128298,0.17107017,86.69573974609375,0.0,9.935046,0.0,1741097075000,0.092195444,,328169208643779,3.317163,0
Fix,gps,52.17128302,0.17107015,86.6983642578125,0.0,9.935046,0.0,1741097076000,0.09899495,,328170218668049,4.180116,0
Fix,gps,52.17128301,0.17107017,86.69793701171875,0.0,9.935046,0.0,1741097077000,0.092195444,,328171217004143,3.8840473,0
Fix,gps,52.17128301,0.17107017,86.69671630859375,0.0,9.935046,0.0,1741097078000,0.086023256,,328172205269247,3.8424644,0
Fix,gps,52.17128299,0.1710702,86.69696044921875,0.0,9.935046,0.0,1741097079000,0.1,,328173224806277,3.611941,0
Fix,gps,52.17128298,0.17107021,86.6942138671875,0.0,9.935046,0.0,1741097080000,0.114017546,,328174213943673,3.3098207,0
Fix,gps,52.17128298,0.17107022,86.69415283203125,0.0,9.935046,0.0,1741097081000,0.086023256,,328175209548412,3.1470265,0
Fix,gps,52.17128299,0.17107023,86.69879150390625,0.0,9.935046,0.0,1741097082000,0.092195444,,328176223592891,3.1154351,0
Fix,gps,52.17128299,0.17107024,86.6978759765625,0.0,9.935046,0.0,1741097083000,0.086023256,,328177213755859,2.9393954,0
Fix,gps,52.17128301,0.17107023,86.7017822265625,0.0,9.935046,0.0,1741097084000,0.086023256,,328178210843411,2.9572346,0
Fix,gps,52.17128302,0.17107026,86.70513916015625,0.0,9.935046,0.0,1741097085000,0.092195444,,328179211434452,3.3049467,0
Fix,gps,52.17128304,0.17107029,86.70751953125,0.0,9.935046,0.0,1741097086000,0.086023256,,328180210430598,3.433935,0
Fix,gps,52.17128304,0.17107031,86.70709228515625,0.0,9.935046,0.0,1741097087000,0.086023256,,328181212254920,3.2404404,0
Fix,gps,52.17128305,0.17107034,86.7095947265625,0.0,9.935046,0.0,1741097088000,0.092195444,,328182222525649,3.3158052,0
Fix,gps,52.17128306,0.17107036,86.71124267578125,0.0,9.935046,0.0,1741097089000,0.086023256,,328183214113253,3.250019,0
Fix,gps,52.17128306,0.17107038,86.712158203125,0.0,9.935046,0.0,1741097090000,0.086023256,,328184212644502,3.0526721,0
Fix,gps,52.17128307,0.1710704,86.714111328125,0.0,9.935046,0.0,1741097091000,0.086023256,,328185207699502,2.8310292,0
Fix,gps,52.17128307,0.17107044,86.7156982421875,0.0,9.935046,0.0,1741097092000,0.086023256,,328186328263408,2.8808851,0
Fix,gps,52.17128305,0.1710705,86.7154541015625,0.0,9.935046,0.0,1741097094000,0.092195444,,328188220955543,2.5533233,0
Fix,gps,52.17128304,0.17107053,86.7154541015625,0.0,9.935046,0.0,1741097095000,0.086023256,,328189216782209,2.5,0
Fix,gps,52.17128304,0.17107055,86.7178955078125,0.0,9.935046,0.0,1741097096000,0.086023256,,328190211639969,2.5,0
Fix,gps,52.17128303,0.17107056,86.71600341796875,0.0,9.935046,0.0,1741097097000,0.086023256,,328191212077677,2.5,0
Fix,gps,52.17128301,0.17107059,86.717041015625,0.0,9.935046,0.0,1741097098000,0.086023256,,328192206230229,2.5,0
Fix,gps,52.17128302,0.17107062,86.71820068359375,0.0,9.935046,0.0,1741097099000,0.086023256,,328193218655853,2.5,0
Fix,gps,52.17128302,0.17107064,86.71966552734375,0.0,9.935046,0.0,1741097100000,0.086023256,,328194210332676,2.5,0
Fix,gps,52.17128291,0.17107042,86.70465087890625,0.0,9.935046,0.0,1741097101000,0.086023256,,328195207472675,2.5,0
Fix,gps,52.17128289,0.17107035,86.7039794921875,0.0,9.935046,0.0,1741097102000,0.086023256,,328196214546633,2.5,0
Fix,gps,52.17128287,0.17107032,86.70391845703125,0.0,9.935046,0.0,1741097103000,0.086023256,,328197217270435,2.5,0
Fix,gps,52.17128286,0.17107033,86.7044677734375,0.0,9.935046,0.0,1741097104000,0.086023256,,328198208488403,2.5,0
Fix,gps,52.17128285,0.17107035,86.70501708984375,0.0,9.935046,0.0,1741097105000,0.086023256,,328199213505538,2.5,0
Fix,gps,52.17128283,0.17107037,86.70166015625,0.0,9.935046,0.0,1741097106000,0.086023256,,328200210300746,2.5,0
Fix,gps,52.17128282,0.17107039,86.701904296875,0.0,9.935046,0.0,1741097107000,0.086023256,,328201208738819,2.5,0
Fix,gps,52.17128279,0.17107041,86.69915771484375,0.0,9.935046,0.0,1741097108000,0.086023256,,328202213629079,2.5,0
Fix,gps,52.17128276,0.17107043,86.696533203125,0.0,9.935046,0.0,1741097109000,0.086023256,,328203214850797,2.6999156,0
Fix,gps,52.17128275,0.17107047,86.6978759765625,0.0,9.935046,0.0,1741097110000,0.086023256,,328204211619703,2.7758162,0
Fix,gps,52.17128273,0.1710705,86.69659423828125,0.0,9.935046,0.0,1741097111000,0.086023256,,328205209312515,2.9141216,0
Fix,gps,52.17128273,0.17107051,86.696044921875,0.0,9.935046,0.0,1741097112000,0.086023256,,328206210436265,3.048474,0
Fix,gps,52.17128271,0.17107054,86.69482421875,0.0,9.935046,0.0,1741097113000,0.086023256,,328207212582983,2.9821508,0
Fix,gps,52.1712827,0.17107057,86.6943359375,0.0,9.935046,0.0,1741097114000,0.086023256,,328208209378868,2.9237256,0
Fix,gps,52.17128269,0.17107059,86.69403076171875,0.0,9.935046,0.0,1741097115000,0.086023256,,328209216207201,2.855477,0
Fix,gps,52.17128267,0.17107061,86.6927490234375,0.0,9.935046,0.0,1741097116000,0.086023256,,328210216408503,2.7877934,0
Fix,gps,52.17128266,0.17107065,86.692626953125,0.0,9.935046,0.0,1741097117000,0.086023256,,328211206270534,2.7224817,0
Fix,gps,52.17128264,0.17107069,86.69189453125,0.0,9.935046,0.0,1741097118000,0.086023256,,328212222462877,2.648127,0
Fix,gps,52.17128262,0.17107072,86.69073486328125,0.0,9.935046,0.0,1741097119000,0.086023256,,328213212870585,2.9324398,0
Fix,gps,52.1712826,0.1710708,86.69390869140625,0.0,9.935046,0.0,1741097120000,0.086023256,,328214217833397,2.6944602,0
Fix,gps,52.17128258,0.17107083,86.6986083984375,0.0,9.935046,0.0,1741097121000,0.086023256,,328215213121105,2.5006194,0
Fix,gps,52.17128255,0.17107083,86.70123291015625,0.0,9.935046,0.0,1741097122000,0.086023256,,328216206560167,2.8431413,0
Fix,gps,52.17128252,0.17107082,86.70782470703125,0.0,9.935046,0.0,1741097123000,0.086023256,,328217210658188,3.0236306,0
Fix,gps,52.17128249,0.1710708,86.7115478515625,0.0,9.935046,0.0,1741097124000,0.086023256,,328218213936729,2.932292,0
Fix,gps,52.17128247,0.17107079,86.7159423828125,0.0,9.935046,0.0,1741097125000,0.086023256,,328219206537093,2.9759226,0
Fix,gps,52.17128246,0.17107074,86.71820068359375,0.0,9.935046,0.0,1741097126000,0.086023256,,328220210582822,3.0233855,0
Fix,gps,52.17128244,0.1710707,86.72271728515625,0.0,9.935046,0.0,1741097127000,0.086023256,,328221220496103,2.9166596,0
Fix,gps,52.17128243,0.17107071,86.72552490234375,0.0,9.935046,0.0,1741097128000,0.086023256,,328222218810842,2.6784103,0
Fix,gps,52.17128243,0.1710707,86.727783203125,0.0,9.935046,0.0,1741097129000,0.086023256,,328223212889592,2.662774,0
Fix,gps,52.17128242,0.17107069,86.73162841796875,0.0,9.935046,0.0,1741097130000,0.086023256,,328224213498133,2.5468013,0
Fix,gps,52.17128203,0.1710697,86.6640625,0.0,9.935046,0.0,1741097131000,0.086023256,,328225205394018,2.5,0
Fix,gps,52.17128189,0.17106937,86.66217041015625,0.0,9.935046,0.0,1741097132000,0.086023256,,328226212646518,2.5,0
Fix,gps,52.17128184,0.17106919,86.663330078125,0.0,9.935046,0.0,1741097133000,0.086023256,,328227212788184,2.5,0
Fix,gps,52.17128179,0.17106907,86.66497802734375,0.0,9.935046,0.0,1741097134000,0.086023256,,328228208002038,2.5,0
Fix,gps,52.17128176,0.17106896,86.66363525390625,0.0,9.935046,0.0,1741097135000,0.086023256,,328229209450527,2.5,0
Fix,gps,52.17128173,0.1710689,86.6666259765625,0.0,9.935046,0.0,1741097136000,0.086023256,,328230213557141,2.5,0
Fix,gps,52.17128171,0.17106885,86.6689453125,0.0,9.935046,0.0,1741097137000,0.086023256,,328231211418964,2.5,0
Fix,gps,52.17128171,0.1710688,86.67041015625,0.0,9.935046,0.0,1741097138000,0.086023256,,328232219467765,2.5,0
Fix,gps,52.17128171,0.17106876,86.675537109375,0.0,9.935046,0.0,1741097139000,0.086023256,,328233210851411,2.5,0
Fix,gps,52.17128171,0.17106875,86.682373046875,0.0,9.935046,0.0,1741097140000,0.086023256,,328234201980525,2.5,0
Fix,gps,52.17128169,0.17106878,86.68798828125,0.0,9.935046,0.0,1741097141000,0.086023256,,328235214888337,2.5,0
Fix,gps,52.17128167,0.17106877,86.6861572265625,0.0,3.7900925,0.0,1741097142000,0.086023256,,328236200407868,2.5,0
Fix,gps,52.17128166,0.17106874,86.68408203125,0.0,3.7900925,0.0,1741097143000,0.086023256,,328237215091513,2.5,0
Fix,gps,52.17128166,0.17106871,86.68646240234375,0.0,3.7900925,0.0,1741097144000,0.086023256,,328238208283024,2.5,0
Fix,gps,52.17128167,0.17106869,86.68756103515625,0.0,3.7900925,0.0,1741097145000,0.086023256,,328239214339586,2.5,0
Fix,gps,52.17128165,0.17106868,86.6884765625,0.0,3.7900925,0.0,1741097146000,0.086023256,,328240209218231,2.5,0
Fix,gps,52.17127801,0.17106985,86.96112060546875,0.32,3.7900925,170.4,1741097147000,0.840595,79.062904,328241211078856,2.5,0
Fix,gps,52.17127904,0.1710637,86.96820068359375,0.0,3.7900925,0.0,1741097148000,0.12041595,,328242216903022,2.5,0
Fix,gps,52.17127948,0.1710622,87.21014404296875,0.0,3.7900925,0.0,1741097149000,0.09899495,,328243208642345,2.5,0
Fix,gps,52.17128079,0.17106036,86.80706787109375,0.0,3.7900925,0.0,1741097150000,0.14212671,,328244199189740,2.5,0
Fix,gps,52.1712839,0.17105874,86.9149169921875,0.0,3.7900925,0.0,1741097151000,0.086023256,,328245204563385,2.5,0
Fix,gps,52.17128604,0.17105638,86.86212158203125,0.0,3.7900925,0.0,1741097152000,0.086023256,,328246215229895,2.5,0
Fix,gps,52.17128933,0.1710524,86.9583740234375,0.0,3.7900925,0.0,1741097153000,0.086023256,,328247213867083,2.5,0
Fix,gps,52.17129084,0.17104931,86.767333984375,0.0,3.7900925,0.0,1741097154000,0.080622576,,328248204616926,2.5,0
Fix,gps,52.17129255,0.17104582,86.81231689453125,0.0,3.7900925,0.0,1741097155000,0.086023256,,328249210568176,2.5,0
Fix,gps,52.17129395,0.17104244,86.3990478515625,0.0,3.7900925,0.0,1741097156000,0.086023256,,328250207047342,2.5,0
Fix,gps,52.17129506,0.17103927,86.107421875,0.0,3.7900925,0.0,1741097157000,0.086023256,,328251209439477,2.5,0
Fix,gps,52.17129588,0.17103873,85.9005126953125,0.0,3.7900925,0.0,1741097158000,0.086023256,,328252198856560,2.5,0
Fix,gps,52.17129644,0.17103841,85.75653076171875,0.0,3.7900925,0.0,1741097159000,0.086023256,,328253212079164,2.5,0
Fix,gps,52.17129502,0.17103205,86.26171875,0.47,3.7900925,266.6,1741097160000,0.8850989,69.68213,328254211957965,2.5,0
Fix,gps,52.17129403,0.17103435,86.916015625,0.0,3.7900925,0.0,1741097161000,0.086023256,,328255223489111,2.5,0
Fix,gps,52.17129331,0.17103574,87.3262939453125,0.0,3.7900925,0.0,1741097162000,0.086023256,,328256218033381,2.5,0
Fix,gps,52.17129121,0.17103569,87.4952392578125,0.0,3.7900925,0.0,1741097163000,0.086023256,,328257224698850,2.5,0
Fix,gps,52.17129096,0.17102807,86.391845703125,0.54,3.7900925,231.3,1741097164000,0.092195444,7.379795,328258212642287,2.5,0
Fix,gps,52.1712937,0.17102187,87.0684814453125,0.0,3.7900925,0.0,1741097165000,0.072111025,,328259216474943,2.5,0
Fix,gps,52.17129567,0.17101826,87.64080810546875,0.29,3.7900925,229.4,1741097166000,0.8682166,6.8317533,328260209748223,2.5,0
Fix,gps,52.17129577,0.17101117,87.635009765625,0.33,3.7900925,229.4,1741097167000,0.8905055,11.12795,328261208541817,2.5,0
Fix,gps,52.17129448,0.17100511,87.44879150390625,0.0,3.7900925,0.0,1741097168000,0.086023256,,328262219729994,2.5,0
Fix,gps,52.17129341,0.17100508,87.336181640625,0.0,3.7900925,0.0,1741097169000,0.086023256,,328263205558170,2.5,0
Fix,gps,52.17129262,0.17100507,87.16241455078125,0.0,3.7900925,0.0,1741097170000,0.086023256,,328264201990982,2.5,0
Fix,gps,52.17129309,0.17100528,87.13775634765625,0.0,3.7900925,0.0,1741097171000,0.086023256,,328265216928430,2.5,0
Fix,gps,52.17129395,0.17100589,87.178955078125,0.0,3.7900925,0.0,1741097172000,0.086023256,,328266209473273,2.5,0
Fix,gps,52.17129362,0.17100786,87.11328125,0.0,3.7900925,0.0,1741097173000,0.086023256,,328267210738377,2.5,0
Fix,gps,52.17129335,0.17100927,87.04681396484375,0.0,3.7900925,0.0,1741097174000,0.086023256,,328268207960304,2.5,0
Fix,gps,52.17129315,0.17101134,87.0218505859375,0.0,3.7900925,0.0,1741097175000,0.086023256,,328269211206085,2.5,0
Fix,gps,52.17129317,0.17101169,86.9451904296875,0.0,3.7900925,0.0,1741097176000,0.086023256,,328270209935876,2.5,0
Fix,gps,52.17129257,0.17101104,86.7357177734375,0.0,3.7900925,0.0,1741097177000,0.086023256,,328271212952542,2.5,0
Fix,gps,52.17129244,0.17101113,86.66876220703125,0.0,3.7900925,0.0,1741097178000,0.086023256,,328272206805198,2.5,0
Fix,gps,52.17129235,0.1710112,86.6287841796875,0.0,3.7900925,0.0,1741097179000,0.086023256,,328273212032906,2.5,0
Fix,gps,52.17129228,0.1710112,86.60565185546875,0.0,3.7900925,0.0,1741097180000,0.086023256,,328274210124156,2.5,0
Fix,gps,52.17129225,0.17101119,86.601318359375,0.0,3.7900925,0.0,1741097181000,0.086023256,,328275203031864,2.5,0
Fix,gps,52.17129222,0.17101119,86.59820556640625,0.0,3.7900925,0.0,1741097182000,0.086023256,,328276213810249,2.5,0
Fix,gps,52.17129221,0.17101118,86.5960693359375,0.0,3.7900925,0.0,1741097183000,0.086023256,,328277207718634,2.5,0
Fix,gps,52.17129221,0.17101119,86.595458984375,0.0,3.7900925,0.0,1741097184000,0.086023256,,328278215907227,2.5,0
Fix,gps,52.17129219,0.1710112,86.59307861328125,0.0,3.7900925,0.0,1741097185000,0.086023256,,328279208283268,2.5,0
Fix,gps,52.17129218,0.1710112,86.5916748046875,0.0,3.7900925,0.0,1741097186000,0.086023256,,328280210788893,2.5,0
Fix,gps,52.17129216,0.17101122,86.59161376953125,0.0,3.7900925,0.0,1741097187000,0.086023256,,328281199523736,2.5,0
Fix,gps,52.17129215,0.17101124,86.59027099609375,0.0,3.7900925,0.0,1741097188000,0.086023256,,328282201752434,2.5,0
Fix,gps,52.17129214,0.17101125,86.58953857421875,0.0,3.7900925,0.0,1741097189000,0.086023256,,328283202155663,2.5,0
Fix,gps,52.17129212,0.17101128,86.58856201171875,0.0,3.7900925,0.0,1741097190000,0.086023256,,328284203890089,2.5457127,0
Fix,gps,52.1712921,0.17101131,86.58740234375,0.0,3.7900925,0.0,1741097191000,0.086023256,,328285325711078,2.9114525,0
Fix,gps,52.17129207,0.17101137,86.58599853515625,0.0,3.7900925,0.0,1741097193000,0.086023256,,328287202810557,3.3501341,0
Fix,gps,52.17129209,0.17101137,86.5850830078125,0.0,3.7900925,0.0,1741097194000,0.086023256,,328288203751807,3.736864,0
Fix,gps,52.17129208,0.1710114,86.5853271484375,0.0,3.7900925,0.0,1741097195000,0.086023256,,328289200878317,3.6113458,0
Fix,gps,52.17129208,0.17101143,86.5855712890625,0.0,3.7900925,0.0,1741097196000,0.086023256,,328290202931962,3.5540571,0
Fix,gps,52.17129206,0.17101147,86.58502197265625,0.0,3.7900925,0.0,1741097197000,0.086023256,,328291199802482,3.7366953,0
Fix,gps,52.17129206,0.17101148,86.58538818359375,0.0,3.7900925,0.0,1741097198000,0.16552946,,328292202551336,3.1639159,0
Fix,gps,52.17127999,0.17100645,86.63983154296875,1.69,3.7900925,197.5,1741097199000,0.2147091,4.123291,328293207837430,2.7349796,0
Fix,gps,52.17126772,0.17100204,87.95843505859375,1.03,3.7900925,188.6,1741097200000,0.3280244,12.981597,328294215205346,2.7202413,0
Fix,gps,52.17125654,0.17100299,88.09100341796875,0.95,3.7900925,187.6,1741097201000,0.27658632,6.904468,328295209310398,2.5822165,0
Fix,gps,52.17124453,0.17099934,88.17022705078125,1.34,3.7900925,202.4,1741097202000,0.42520583,13.890858,328296207241126,2.6470587,0
Fix,gps,52.17123316,0.17099085,88.319091796875,1.29,3.7900925,212.6,1741097203000,0.9569222,36.88644,328297205711386,2.5960627,0
Fix,gps,52.17122266,0.17098774,88.61279296875,1.03,3.7900925,206.5,1741097204000,0.998599,46.34808,328298210616386,2.6558738,0
Fix,gps,52.17121123,0.17098492,88.50848388671875,1.11,3.7900925,208.8,1741097205000,0.840595,38.117737,328299204566438,2.5,0
Fix,gps,52.17119994,0.17097998,88.60272216796875,1.15,3.7900925,207.4,1741097206000,0.8544004,37.355335,328300212411021,2.5,0
Fix,gps,52.17118853,0.17097853,89.0335693359375,1.09,3.7900925,201.7,1741097207000,0.92358,41.31398,328301215715447,2.5,0
Fix,gps,52.17117603,0.17097497,89.281005859375,1.21,3.7900925,211.3,1741097208000,0.9183681,37.511116,328302219875291,2.5,0
Fix,gps,52.17116369,0.17097063,89.2449951171875,1.32,3.7900925,214.6,1741097209000,0.85982555,33.463264,328303210923207,2.5,0
Fix,gps,52.17115225,0.17096432,89.00872802734375,1.24,3.7900925,212.4,1741097210000,0.99297535,39.454857,328304213820967,2.5,0
Fix,gps,52.17114157,0.17096088,89.45306396484375,1.08,3.7900925,208.1,1741097211000,0.84599054,39.247997,328305218088935,2.5,0
Fix,gps,52.17112931,0.1709632,90.743408203125,1.31,3.7900925,177.7,1741097212000,0.8736704,34.0411,328306219461070,2.5,0
Fix,gps,52.17111907,0.1709674,90.3541259765625,1.05,3.7900925,180.1,1741097213000,0.840595,40.033485,328307215942841,2.5,0
Fix,gps,52.17110848,0.17095884,90.64263916015625,1.28,3.7900925,219.3,1741097214000,0.84599054,34.079487,328308218419299,2.5,0
Fix,gps,52.17109556,0.17095439,91.20037841796875,1.2,3.7900925,202.5,1741097215000,0.840595,35.968567,328309217821538,2.5,0
Fix,gps,52.17108747,0.17094446,90.8914794921875,1.02,3.7900925,227.4,1741097216000,0.840595,40.70063,328310220303048,2.5,0
Fix,gps,52.17108223,0.17093202,90.38494873046875,1.04,3.7900925,238.1,1741097217000,0.89044935,41.985386,328311213136381,2.5,0
Fix,gps,52.17107434,0.17092343,90.7003173828125,1.08,3.7900925,218.6,1741097218000,0.88481635,40.094387,328312215155599,2.5,0
Fix,gps,52.17106331,0.17091849,91.27685546875,1.22,3.7900925,203.3,1741097219000,0.840595,35.248207,328313223663620,2.5,0
Fix,gps,52.17105483,0.17091406,91.3861083984375,1.03,3.7900925,222.5,1741097220000,0.8736704,41.235123,328314216381901,2.5,0
Fix,gps,52.17104822,0.17090238,90.86077880859375,1.04,3.7900925,243.6,1741097221000,0.840595,40.099503,328315227450494,2.5,0
Fix,gps,52.17104555,0.1708851,90.7745361328125,1.14,3.7900925,265.9,1741097222000,0.8736704,38.41975,328316226003619,2.5,0
Fix,gps,52.17104588,0.17086605,90.68109130859375,1.14,3.7900925,274.5,1741097223000,0.8792042,38.18791,328317227527629,2.5,0
Fix,gps,52.17104439,0.17084739,90.6268310546875,1.24,3.7900925,262.1,1741097224000,0.85702974,34.899868,328318229976743,2.5,0
Fix,gps,52.17104147,0.17082885,90.89556884765625,1.28,3.7900925,261.3,1741097225000,0.8930845,35.1636,328319214625388,2.5,0
Fix,gps,52.17103761,0.1708083,91.16162109375,1.37,3.7900925,263.4,1741097226000,1.020784,36.724934,328320222687055,2.5,0
Fix,gps,52.17103254,0.17078996,90.0906982421875,1.14,3.7900925,249.8,1741097227000,0.840595,37.416565,328321227885075,2.5,0
Fix,gps,52.17102768,0.17077384,90.0865478515625,1.16,9.935046,259.4,1741097228000,0.84599054,36.920067,328322221541325,2.5,0
Fix,gps,52.17102216,0.17075336,90.06793212890625,1.25,9.935046,254.1,1741097229000,0.8930845,35.91814,328323222037158,2.5,0
Fix,gps,52.17101286,0.17073711,90.39208984375,1.24,9.935046,235.0,1741097230000,0.90972525,36.88513,328324217725230,2.5,0
Fix,gps,52.17100696,0.17071906,91.227294921875,1.17,9.935046,249.2,1741097231000,0.88481635,37.40262,328325214704344,2.5,0
Fix,gps,52.17100057,0.17070391,91.0428466796875,1.1,9.935046,246.7,1741097232000,0.9208692,40.512913,328326217059813,2.5,0
Fix,gps,52.17099617,0.17069181,91.2562255859375,0.92,9.935046,256.8,1741097233000,0.840595,44.562817,328327227901635,2.5,0
Fix,gps,52.1709922,0.17067818,91.12432861328125,0.98,9.935046,262.3,1741097234000,0.85982555,42.48064,328328217657885,2.5,0
Fix,gps,52.17098809,0.17066443,91.06927490234375,0.98,9.935046,252.1,1741097235000,0.89872134,43.40634,328329218535541,2.5,0
Fix,gps,52.17098439,0.17064887,91.71209716796875,0.96,9.935046,253.2,1741097236000,0.8930845,44.273293,328330225521530,2.5,0
Fix,gps,52.17098233,0.17063177,91.95916748046875,0.87,9.935046,266.3,1741097237000,0.840595,46.183178,328331225619134,2.5,0
Fix,gps,52.17097775,0.17061467,91.921875,0.95,9.935046,252.1,1741097238000,0.840595,43.25585,328332226621165,2.5,0
Fix,gps,52.17097324,0.17059832,92.09942626953125,0.97,9.935046,251.8,1741097239000,0.840595,42.6974,328333216042258,2.5,0
Fix,gps,52.17096681,0.17058333,92.1583251953125,0.98,9.935046,246.4,1741097240000,0.87091905,42.69424,328334221873091,2.5,0
Fix,gps,52.17096215,0.17056651,92.273193359375,1.03,9.935046,256.3,1741097241000,0.9102197,42.115913,328335227057674,2.5,0
Fix,gps,52.17096005,0.17054625,91.21661376953125,1.1,9.935046,261.6,1741097242000,0.840595,38.47042,328336214713819,2.5,0
Fix,gps,52.17095696,0.17052943,90.78753662109375,1.03,9.935046,256.5,1741097243000,0.9183681,42.310688,328337217979705,2.5,0
Fix,gps,52.17095143,0.17051388,90.533935546875,1.0,9.935046,255.8,1741097244000,0.84599054,41.475315,328338211969704,2.5,0
Fix,gps,52.17094755,0.17049872,90.72308349609375,1.03,9.935046,264.7,1741097245000,0.8823265,41.044716,328339216627204,2.5,0
Fix,gps,52.17094597,0.17048382,90.661376953125,1.03,9.935046,273.4,1741097246000,0.932309,43.114056,328340213806526,2.5,0
Fix,gps,52.17094212,0.1704678,90.6553955078125,1.04,9.935046,260.7,1741097247000,0.84599054,40.2466,328341217340484,2.5,0
Fix,gps,52.17093882,0.17045314,90.88629150390625,0.96,9.935046,259.0,1741097248000,0.840595,43.026333,328342226234651,2.5,0
Fix,gps,52.17093776,0.17043664,90.77874755859375,1.07,9.935046,269.0,1741097249000,0.96041656,44.07585,328343222407619,2.5,0
Fix,gps,52.1709364,0.17041969,90.88934326171875,1.04,9.935046,265.0,1741097250000,0.8930845,41.75645,328344225243348,2.5,0
Fix,gps,52.17093365,0.17040762,91.2586669921875,0.92,9.935046,265.8,1741097251000,0.840595,44.305656,328345215747358,2.5,0
Fix,gps,52.17092742,0.17039615,91.46258544921875,1.04,9.935046,244.7,1741097252000,0.9291394,42.816177,328346227308295,2.5,0
Fix,gps,52.17092216,0.1703849,90.90625,0.89,9.935046,251.9,1741097253000,0.84599054,45.386166,328347231948294,2.5,0
Fix,gps,52.17091866,0.17037055,90.6337890625,0.97,9.935046,262.2,1741097254000,0.9183681,44.429916,328348225738763,2.5,0
Fix,gps,52.17091153,0.17035721,91.08343505859375,1.04,9.935046,235.1,1741097255000,0.9404786,42.941303,328349216415950,2.5,0
Fix,gps,52.17090509,0.17034154,91.49853515625,0.94,9.935046,243.0,1741097256000,0.89872134,44.71586,328350224937564,2.5,0
Fix,gps,52.17090024,0.17032854,91.6116943359375,0.85,9.935046,249.4,1741097257000,0.8653323,47.424683,328351214496157,2.5,0
Fix,gps,52.1708976,0.17031528,91.79248046875,0.87,9.935046,261.0,1741097258000,0.84599054,46.170135,328352219109126,2.5,0
Fix,gps,52.17090059,0.17030193,92.19696044921875,0.82,9.935046,286.0,1741097259000,0.840595,48.07606,328353216843292,2.5,0
Fix,gps,52.17089992,0.17028998,92.35870361328125,0.69,9.935046,262.6,1741097260000,0.840595,54.133198,328354223505063,2.5,0
Fix,gps,52.17089928,0.17027795,92.87823486328125,0.74,9.935046,269.0,1741097261000,0.8544004,52.258762,328355214219437,2.5,0
Fix,gps,52.17089699,0.17026465,92.9423828125,0.89,9.935046,258.0,1741097262000,0.9404786,48.132244,328356226467510,2.5,0
Fix,gps,52.17089174,0.17025394,93.23944091796875,0.93,9.935046,251.9,1741097263000,0.93600214,45.76639,328357225400634,2.5,0
Fix,gps,52.17088529,0.17024594,92.91241455078125,0.97,9.935046,225.4,1741097264000,0.85146934,42.775124,328358226521311,2.5,0
Fix,gps,52.17087988,0.17023648,93.0709228515625,0.96,9.935046,233.7,1741097265000,0.932309,45.3178,328359212939071,2.5,0
Fix,gps,52.17087539,0.17022433,93.28125,0.94,9.935046,236.2,1741097266000,0.9347727,46.086315,328360213255998,2.5,0
Fix,gps,52.17087432,0.17020841,93.555908203125,0.99,9.935046,258.1,1741097267000,0.9160786,42.894463,328361217140633,2.5,0
Fix,gps,52.17087156,0.17019453,93.01788330078125,0.92,9.935046,239.9,1741097268000,0.9265528,46.656887,328362226516414,2.5,0
Fix,gps,52.1708668,0.17018334,93.35589599609375,0.87,9.935046,230.9,1741097269000,0.98005104,50.08576,328363226305997,2.5,0
Fix,gps,52.17086294,0.17016957,93.6805419921875,0.81,9.935046,251.1,1741097270000,0.84599054,48.569775,328364217689955,2.5,0
Fix,gps,52.17086128,0.17015563,94.02978515625,0.82,9.935046,261.8,1741097271000,0.9220087,49.72511,328365227423652,2.5,0
Fix,gps,52.17086044,0.17014887,94.139892578125,0.0,9.935046,0.0,1741097272000,0.02236068,,328366226151933,2.5,0
Fix,gps,52.17086227,0.17013465,95.91497802734375,0.73,9.935046,267.0,1741097273000,0.85146934,52.65236,328367219045787,2.5,0
Fix,gps,52.17086499,0.17012102,96.23236083984375,0.64,9.935046,266.5,1741097274000,0.840595,56.861732,328368217894849,2.5,0
Fix,gps,52.17086223,0.17010944,96.080810546875,0.72,9.935046,236.9,1741097275000,0.84599054,53.04635,328369224369536,2.5,0
Fix,gps,52.1708571,0.17010396,95.833251953125,0.77,9.935046,224.1,1741097276000,0.85146934,50.445744,328370213335265,2.5,0
Fix,gps,52.17085012,0.17010285,95.3677978515625,0.74,9.935046,200.4,1741097277000,0.84599054,52.045757,328371213802504,2.5,0
Fix,gps,52.17084397,0.17010368,94.30078125,0.74,9.935046,190.3,1741097278000,0.84599054,51.91123,328372223444066,2.5,0
Fix,gps,52.1708372,0.17010976,93.56463623046875,0.77,9.935046,167.3,1741097279000,0.89627004,51.574924,328373224656201,2.5,0
Fix,gps,52.17082873,0.17011327,93.6317138671875,0.83,9.935046,177.0,1741097280000,0.84599054,47.99583,328374213580315,2.5,0
Fix,gps,52.17082248,0.17011624,92.95977783203125,0.71,9.935046,186.7,1741097281000,0.840595,53.525635,328375282445471,2.5,0
Fix,gps,52.1708165,0.17012398,92.120849609375,0.77,9.935046,173.7,1741097282000,0.840595,50.526295,328376214480158,2.5,0
Fix,gps,52.17080954,0.17012581,91.81390380859375,0.81,9.935046,195.3,1741097283000,0.97416633,52.032997,328377220477241,2.5,0
Fix,gps,52.17080249,0.17012916,91.03948974609375,0.81,9.935046,181.1,1741097284000,0.840595,48.678738,328378218144428,2.5,0
Fix,gps,52.17079564,0.17013351,90.746826171875,0.77,9.935046,172.8,1741097285000,0.9102197,52.05406,328379222808699,2.5,0
Fix,gps,52.170788,0.17013952,90.68212890625,0.89,9.935046,169.7,1741097286000,0.840595,45.292587,328380208573751,2.5,0
Fix,gps,52.17078257,0.17014653,90.5472412109375,0.77,9.935046,163.8,1741097287000,0.9102197,51.892902,328381221920521,2.5,0
Fix,gps,52.17077692,0.1701502,90.06787109375,0.79,9.935046,175.1,1741097288000,0.9300538,51.67493,328382225806458,2.5,0
Fix,gps,52.17077062,0.17015631,89.16473388671875,0.77,9.935046,166.9,1741097289000,0.8823265,51.001694,328383218441093,2.5,0
Fix,gps,52.17076365,0.17016226,89.7362060546875,0.82,9.935046,163.2,1741097290000,0.84599054,48.467335,328384212771562,2.5,0
Fix,gps,52.17075627,0.17017031,89.32269287109375,0.8,9.935046,158.8,1741097291000,0.85146934,49.356827,328385211772499,2.5,0
Fix,gps,52.17074801,0.17017963,89.3946533203125,0.8,9.935046,163.0,1741097292000,0.8653323,49.43636,328386218783227,2.5,0
Fix,gps,52.17074,0.17018719,89.099853515625,0.82,9.935046,170.7,1741097293000,0.840595,48.14195,328387225649529,2.5,0
Fix,gps,52.17073315,0.17019529,89.4124755859375,0.82,9.935046,158.1,1741097294000,0.87091905,48.88087,328388221647341,2.5,0
Fix,gps,52.1707263,0.17020304,89.416259765625,0.87,9.935046,160.0,1741097295000,0.840595,46.05966,328389219670726,2.5,0
Fix,gps,52.17072086,0.17020901,89.28472900390625,0.75,9.935046,160.7,1741097296000,0.840595,51.169758,328390217103434,2.5,0
Fix,gps,52.17071386,0.17021389,89.158935546875,0.79,9.935046,168.4,1741097297000,0.91263354,51.45199,328391220126663,2.5,0
Fix,gps,52.17070537,0.17021761,89.2833251953125,0.83,9.935046,179.8,1741097298000,0.840595,47.779373,328392215618798,2.5,0
Fix,gps,52.17069673,0.17022907,89.350341796875,0.85,9.935046,151.0,1741097299000,0.84599054,47.049408,328393214692496,2.5,0
